{
	"hotels": [
		{
			"id": 1,
			"name": "الماس تهران",
			"description": "هتل الماس ۲ تهران می‌تواند تجربه اقامتی لوکس و بی‌نظیر را برایتان رقم بزند. این هتل پنج ستاره همانند شهری کوچک تمام نیازهای شما را به گونه‌ای برآورده می‌کند که احتیاجی به خروج از هتل ندارید؛ مخصوصا با وجود بازارچه اختصاصی هتل. اگر اهل هنر و تاریخ باشید، این هتل سوپرایز خوبی برای شما دارد که اقامت در این هتل را فراموش نشدنی می‌کند",
			"location": { "long": 51.411756, "lat": 35.748481 },
			"stars": "۲"
		},
		{
			"id": 2,
			"name": "بین المللی قصر",
			"description": "هتل الماس ۲ تهران می‌تواند تجربه اقامتی لوکس و بی‌نظیر را برایتان رقم بزند. این هتل پنج ستاره همانند شهری کوچک تمام نیازهای شما را به گونه‌ای برآورده می‌کند که احتیاجی به خروج از هتل ندارید؛ مخصوصا با وجود بازارچه اختصاصی هتل. اگر اهل هنر و تاریخ باشید، این هتل سوپرایز خوبی برای شما دارد که اقامت در این هتل را فراموش نشدنی می‌کند",
			"location": { "long": 51.442172, "lat": 35.727309 },
			"stars": "۲"
		},
		{
			"id": 3,
			"name": "مجلل درویشی",
			"description": "هتل الماس ۲ تهران می‌تواند تجربه اقامتی لوکس و بی‌نظیر را برایتان رقم بزند. این هتل پنج ستاره همانند شهری کوچک تمام نیازهای شما را به گونه‌ای برآورده می‌کند که احتیاجی به خروج از هتل ندارید؛ مخصوصا با وجود بازارچه اختصاصی هتل. اگر اهل هنر و تاریخ باشید، این هتل سوپرایز خوبی برای شما دارد که اقامت در این هتل را فراموش نشدنی می‌کند",
			"location": { "long": 51.343982, "lat": 35.734276 },
			"stars": "۲"
		},
		{
			"id": 4,
			"name": "گلدن پالاس",
			"description": "هتل الماس ۲ تهران می‌تواند تجربه اقامتی لوکس و بی‌نظیر را برایتان رقم بزند. این هتل پنج ستاره همانند شهری کوچک تمام نیازهای شما را به گونه‌ای برآورده می‌کند که احتیاجی به خروج از هتل ندارید؛ مخصوصا با وجود بازارچه اختصاصی هتل. اگر اهل هنر و تاریخ باشید، این هتل سوپرایز خوبی برای شما دارد که اقامت در این هتل را فراموش نشدنی می‌کند",
			"location": { "long": 51.39548, "lat": 35.759632 },
			"stars": "۲"
		},
		{
			"id": 5,
			"name": "مدینه الرضا",
			"description": "هتل الماس ۲ تهران می‌تواند تجربه اقامتی لوکس و بی‌نظیر را برایتان رقم بزند. این هتل پنج ستاره همانند شهری کوچک تمام نیازهای شما را به گونه‌ای برآورده می‌کند که احتیاجی به خروج از هتل ندارید؛ مخصوصا با وجود بازارچه اختصاصی هتل. اگر اهل هنر و تاریخ باشید، این هتل سوپرایز خوبی برای شما دارد که اقامت در این هتل را فراموش نشدنی می‌کند",
			"location": { "long": 51.491371, "lat": 35.726939 },
			"stars": "۲"
		},
		{
			"id": 6,
			"name": "خورشید هشتم کوثر",
			"description": "هتل الماس ۲ تهران می‌تواند تجربه اقامتی لوکس و بی‌نظیر را برایتان رقم بزند. این هتل پنج ستاره همانند شهری کوچک تمام نیازهای شما را به گونه‌ای برآورده می‌کند که احتیاجی به خروج از هتل ندارید؛ مخصوصا با وجود بازارچه اختصاصی هتل. اگر اهل هنر و تاریخ باشید، این هتل سوپرایز خوبی برای شما دارد که اقامت در این هتل را فراموش نشدنی می‌کند",
			"location": { "long": 51.383993, "lat": 35.709039 },
			"stars": "۲"
		}
	]
}
