{
  "hotels": [
    {
      "id": 1,
      "name": "هتل اسپیناس پالاس",
      "description": "هتل اسپیناس پالاس تهران، یکی از لوکس‌ترین هتل‌های پایتخت است که امکاناتی مدرن و چشم‌انداز فوق‌العاده‌ای از شهر را ارائه می‌دهد. این هتل پنج ستاره دارای رستوران‌های بین‌المللی، سالن‌های مجلل، و خدمات VIP است.",
      "location": { "long": 51.372, "lat": 35.804 },
      "stars": "۵"
    },
    {
      "id": 2,
      "name": "هتل آزادی پارسیان",
      "description": "هتل آزادی تهران یکی از معتبرترین هتل‌های پایتخت است که با امکانات مدرن و موقعیت مکانی عالی، انتخابی ایده‌آل برای اقامت مسافران تجاری و گردشگران محسوب می‌شود.",
      "location": { "long": 51.397, "lat": 35.767 },
      "stars": "۳"
    },
    {
      "id": 3,
      "name": "هتل لاله تهران",
      "description": "هتل لاله تهران با دسترسی عالی به مراکز تفریحی و فرهنگی، اقامتی راحت و دلپذیر را برای مهمانان خود فراهم می‌کند. این هتل دارای رستوران‌های ایرانی و فرنگی و امکانات تفریحی متنوعی است.",
      "location": { "long": 51.399, "lat": 35.715 },
      "stars": "۳.۵"
    },
    {
      "id": 4,
      "name": "هتل هما تهران",
      "description": "هتل هما تهران با فضای دلنشین و امکانات کامل، گزینه‌ای مناسب برای اقامت‌های کاری و تفریحی است. این هتل در یکی از بهترین مناطق تهران واقع شده و خدماتی ممتاز ارائه می‌دهد.",
      "location": { "long": 51.425, "lat": 35.767 },
      "stars": "۲.۵"
    },
    {
      "id": 5,
      "name": "هتل بزرگ تهران",
      "description": "هتل بزرگ تهران با موقعیت مکانی ایده‌آل در مرکز شهر، گزینه‌ای عالی برای اقامت مسافران تجاری و گردشگران است. این هتل امکانات رفاهی و خدماتی مطلوبی را ارائه می‌دهد.",
      "location": { "long": 51.409, "lat": 35.711 },
      "stars": "۳"
    },
    {
      "id": 6,
      "name": "هتل فردوسی تهران",
      "description": "هتل فردوسی تهران با نزدیکی به بازار بزرگ تهران و اماکن تاریخی، انتخابی مناسب برای مسافران علاقه‌مند به تاریخ و فرهنگ ایران است.",
      "location": { "long": 51.421, "lat": 35.689 },
      "stars": "۴.۵"
    }
  ],
  "comments": [
    {
      "hotelId": 1,
      "id": 10,
      "user": "علی",
      "text": "این هتل بهترین تجربه اقامتی رو بهم داد! خدمات عالی و منظره فوق‌العاده‌ای داره.",
      "rate": "۵"
    }
  ]
}
